{
  "generated": "2026-02-13T01:49:36.688Z",
  "source": "U.S. Department of Education College Scorecard",
  "sourceUrl": "https://collegescorecard.ed.gov/",
  "region": "San Francisco Bay Area",
  "count": 148,
  "schools": [
    {
      "id": 108232,
      "name": "Academy of Art University",
      "city": "San Francisco",
      "zip": "94105",
      "url": "https://www.academyart.edu/",
      "ownership": "Private For-Profit",
      "lat": 37.787943,
      "lon": -122.400578,
      "tuitionInState": 28024,
      "tuitionOutOfState": 28024,
      "admissionRate": null,
      "medianEarnings": 39008,
      "enrollment": 4131,
      "gradEnrollment": 2996
    },
    {
      "id": 108269,
      "name": "Academy of Chinese Culture and Health Sciences",
      "city": "Oakland",
      "zip": "94612",
      "url": "https://www.acchs.edu/",
      "ownership": "Private Nonprofit",
      "lat": 37.805972,
      "lon": -122.269839,
      "tuitionInState": null,
      "tuitionOutOfState": null,
      "admissionRate": null,
      "medianEarnings": null,
      "enrollment": null,
      "gradEnrollment": 159
    },
    {
      "id": 384306,
      "name": "Acupuncture and Integrative Medicine College-Berkeley",
      "city": "Berkeley",
      "zip": "94704",
      "url": "https://www.aimc.edu/",
      "ownership": "Private Nonprofit",
      "lat": 37.862754,
      "lon": -122.267636,
      "tuitionInState": null,
      "tuitionOutOfState": null,
      "admissionRate": null,
      "medianEarnings": null,
      "enrollment": null,
      "gradEnrollment": 156
    },
    {
      "id": 262369,
      "name": "Adrian's Beauty College of Turlock",
      "city": "Turlock",
      "zip": "95380",
      "url": "https://www.adrians.edu/",
      "ownership": "Private For-Profit",
      "lat": 37.491448,
      "lon": -120.863784,
      "tuitionInState": null,
      "tuitionOutOfState": null,
      "admissionRate": null,
      "medianEarnings": 18199,
      "enrollment": 71,
      "gradEnrollment": null
    },
    {
      "id": 495192,
      "name": "Alder Graduate School of Education",
      "city": "Redwood City",
      "zip": "94062",
      "url": "https://aldergse.edu/",
      "ownership": "Private Nonprofit",
      "lat": 37.486305,
      "lon": -122.239258,
      "tuitionInState": null,
      "tuitionOutOfState": null,
      "admissionRate": null,
      "medianEarnings": null,
      "enrollment": null,
      "gradEnrollment": 795
    },
    {
      "id": 11046803,
      "name": "Alliant International University-San Francisco Bay Area",
      "city": "Emeryville",
      "zip": "94806",
      "url": "https://www.alliant.edu/",
      "ownership": "Private For-Profit",
      "lat": null,
      "lon": null,
      "tuitionInState": null,
      "tuitionOutOfState": null,
      "admissionRate": null,
      "medianEarnings": 66666,
      "enrollment": null,
      "gradEnrollment": null
    },
    {
      "id": 486558,
      "name": "Aviation Institute of Maintenance-Fremont",
      "city": "Fremont",
      "zip": "94539",
      "url": "https://aviationmaintenance.edu/campuses/fremont-ca",
      "ownership": "Private For-Profit",
      "lat": 37.468594,
      "lon": -121.92135,
      "tuitionInState": 16757,
      "tuitionOutOfState": 16757,
      "admissionRate": null,
      "medianEarnings": null,
      "enrollment": 256,
      "gradEnrollment": null
    },
    {
      "id": 483878,
      "name": "Bay Area Medical Academy",
      "city": "San Francisco",
      "zip": "94108-3623",
      "url": "https://www.bamasf.edu/",
      "ownership": "Private For-Profit",
      "lat": 37.790775,
      "lon": -122.406318,
      "tuitionInState": null,
      "tuitionOutOfState": null,
      "admissionRate": null,
      "medianEarnings": null,
      "enrollment": 159,
      "gradEnrollment": null
    },
    {
      "id": 48387801,
      "name": "Bay Area Medical Academy - San Jose Satellite Location",
      "city": "San Jose",
      "zip": "95113",
      "url": "https://www.bamasf.edu/",
      "ownership": "Private For-Profit",
      "lat": null,
      "lon": null,
      "tuitionInState": null,
      "tuitionOutOfState": null,
      "admissionRate": null,
      "medianEarnings": null,
      "enrollment": null,
      "gradEnrollment": null
    },
    {
      "id": 125170,
      "name": "Berkeley City College",
      "city": "Berkeley",
      "zip": "94704",
      "url": "https://www.berkeleycitycollege.edu/",
      "ownership": "Public",
      "lat": 37.869769,
      "lon": -122.269877,
      "tuitionInState": 1148,
      "tuitionOutOfState": 8684,
      "admissionRate": null,
      "medianEarnings": 41217,
      "enrollment": 4541,
      "gradEnrollment": null
    },
    {
      "id": 108861,
      "name": "Berkeley School of Theology",
      "city": "Berkeley",
      "zip": "94704-3029",
      "url": "https://www.bst.edu/",
      "ownership": "Private Nonprofit",
      "lat": 37.865252,
      "lon": -122.256149,
      "tuitionInState": 2896,
      "tuitionOutOfState": 2896,
      "admissionRate": 63,
      "medianEarnings": null,
      "enrollment": 28,
      "gradEnrollment": 85
    },
    {
      "id": 447810,
      "name": "Blake Austin College",
      "city": "Vacaville",
      "zip": "95688",
      "url": "https://www.blakeaustincollege.edu/",
      "ownership": "Private For-Profit",
      "lat": 38.353851,
      "lon": -121.983781,
      "tuitionInState": null,
      "tuitionOutOfState": null,
      "admissionRate": null,
      "medianEarnings": 42518,
      "enrollment": 11,
      "gradEnrollment": null
    },
    {
      "id": 110334,
      "name": "Cabrillo College",
      "city": "Aptos",
      "zip": "95003",
      "url": "https://www.cabrillo.edu/",
      "ownership": "Public",
      "lat": 36.989448,
      "lon": -121.924797,
      "tuitionInState": 1270,
      "tuitionOutOfState": 9910,
      "admissionRate": null,
      "medianEarnings": 44114,
      "enrollment": 7404,
      "gradEnrollment": null
    },
    {
      "id": 110875,
      "name": "California Beauty College",
      "city": "Modesto",
      "zip": "95354",
      "url": "https://www.calbeautycollege.edu/",
      "ownership": "Private For-Profit",
      "lat": 37.645371,
      "lon": -120.997481,
      "tuitionInState": null,
      "tuitionOutOfState": null,
      "admissionRate": null,
      "medianEarnings": 22255,
      "enrollment": 73,
      "gradEnrollment": null
    },
    {
      "id": 110370,
      "name": "California College of the Arts",
      "city": "San Francisco",
      "zip": "94107-2247",
      "url": "https://www.cca.edu/",
      "ownership": "Private Nonprofit",
      "lat": 37.767485,
      "lon": -122.399451,
      "tuitionInState": 57946,
      "tuitionOutOfState": 57946,
      "admissionRate": 73.4,
      "medianEarnings": 49414,
      "enrollment": 1004,
      "gradEnrollment": 432
    },
    {
      "id": 110316,
      "name": "California Institute of Integral Studies",
      "city": "San Francisco",
      "zip": "94103",
      "url": "https://www.ciis.edu/",
      "ownership": "Private Nonprofit",
      "lat": 37.774924,
      "lon": -122.416102,
      "tuitionInState": null,
      "tuitionOutOfState": null,
      "admissionRate": null,
      "medianEarnings": 48848,
      "enrollment": 57,
      "gradEnrollment": 2356
    },
    {
      "id": 115755,
      "name": "California State Polytechnic University-Humboldt",
      "city": "Arcata",
      "zip": "95521-8299",
      "url": "https://www.humboldt.edu/",
      "ownership": "Public",
      "lat": 40.877481,
      "lon": -124.078293,
      "tuitionInState": 7913,
      "tuitionOutOfState": 19793,
      "admissionRate": 98.8,
      "medianEarnings": 47626,
      "enrollment": 5491,
      "gradEnrollment": 637
    },
    {
      "id": 111188,
      "name": "California State University Maritime Academy",
      "city": "Vallejo",
      "zip": "94590-8181",
      "url": "https://www.csum.edu/",
      "ownership": "Public",
      "lat": 38.069061,
      "lon": -122.231551,
      "tuitionInState": 7672,
      "tuitionOutOfState": 19552,
      "admissionRate": 98.7,
      "medianEarnings": 94784,
      "enrollment": 761,
      "gradEnrollment": 44
    },
    {
      "id": 110574,
      "name": "California State University-East Bay",
      "city": "Hayward",
      "zip": "94542",
      "url": "https://www.csueastbay.edu/",
      "ownership": "Public",
      "lat": 37.657694,
      "lon": -122.054135,
      "tuitionInState": 7055,
      "tuitionOutOfState": 18935,
      "admissionRate": 96.8,
      "medianEarnings": 71401,
      "enrollment": 10422,
      "gradEnrollment": 3206
    },
    {
      "id": 110495,
      "name": "California State University-Stanislaus",
      "city": "Turlock",
      "zip": "95382-0299",
      "url": "https://www.csustan.edu/",
      "ownership": "Public",
      "lat": 37.52577,
      "lon": -120.852511,
      "tuitionInState": 7826,
      "tuitionOutOfState": 19706,
      "admissionRate": 97.5,
      "medianEarnings": 63188,
      "enrollment": 8564,
      "gradEnrollment": 1408
    },
    {
      "id": 111434,
      "name": "Canada College",
      "city": "Redwood City",
      "zip": "94061-1099",
      "url": "https://canadacollege.edu/",
      "ownership": "Public",
      "lat": 37.44877,
      "lon": -122.265398,
      "tuitionInState": 1332,
      "tuitionOutOfState": 9508,
      "admissionRate": null,
      "medianEarnings": 50087,
      "enrollment": 4878,
      "gradEnrollment": null
    },
    {
      "id": 438258,
      "name": "Carrington College-Pleasant Hill Campus",
      "city": "Pleasant Hill",
      "zip": "94523-1984",
      "url": "https://carrington.edu/",
      "ownership": "Private For-Profit",
      "lat": 37.962649,
      "lon": -122.072153,
      "tuitionInState": null,
      "tuitionOutOfState": null,
      "admissionRate": null,
      "medianEarnings": 39633,
      "enrollment": 430,
      "gradEnrollment": null
    },
    {
      "id": 437936,
      "name": "Carrington College-San Jose",
      "city": "San Jose",
      "zip": "95138",
      "url": "https://carrington.edu/",
      "ownership": "Private For-Profit",
      "lat": 37.248411,
      "lon": -121.777062,
      "tuitionInState": null,
      "tuitionOutOfState": null,
      "admissionRate": null,
      "medianEarnings": 39633,
      "enrollment": 680,
      "gradEnrollment": null
    },
    {
      "id": 246974,
      "name": "Carrington College-San Leandro Campus",
      "city": "San Leandro",
      "zip": "94578-3711",
      "url": "https://carrington.edu/",
      "ownership": "Private For-Profit",
      "lat": 37.699627,
      "lon": -122.12567,
      "tuitionInState": null,
      "tuitionOutOfState": null,
      "admissionRate": null,
      "medianEarnings": 39633,
      "enrollment": 400,
      "gradEnrollment": null
    },
    {
      "id": 498872,
      "name": "Central Valley Barber College",
      "city": "Riverbank",
      "zip": "95367-2024",
      "url": "https://www.centralvalleybarbercollege.com/",
      "ownership": "Private For-Profit",
      "lat": 37.738336,
      "lon": -120.932216,
      "tuitionInState": null,
      "tuitionOutOfState": null,
      "admissionRate": null,
      "medianEarnings": null,
      "enrollment": 101,
      "gradEnrollment": null
    },
    {
      "id": 111717,
      "name": "CET-San Jose",
      "city": "San Jose",
      "zip": "95110",
      "url": "https://cetweb.edu/",
      "ownership": "Private Nonprofit",
      "lat": 37.322723,
      "lon": -121.88698,
      "tuitionInState": null,
      "tuitionOutOfState": null,
      "admissionRate": null,
      "medianEarnings": 32986,
      "enrollment": 175,
      "gradEnrollment": null
    },
    {
      "id": 111762,
      "name": "CET-Watsonville",
      "city": "Watsonville",
      "zip": "95076",
      "url": "https://www.cetweb.edu/",
      "ownership": "Private Nonprofit",
      "lat": 36.931833,
      "lon": -121.767991,
      "tuitionInState": null,
      "tuitionOutOfState": null,
      "admissionRate": null,
      "medianEarnings": 32986,
      "enrollment": 149,
      "gradEnrollment": null
    },
    {
      "id": 111920,
      "name": "Chabot College",
      "city": "Hayward",
      "zip": "94545",
      "url": "https://www.chabotcollege.edu/",
      "ownership": "Public",
      "lat": 37.642458,
      "lon": -122.105636,
      "tuitionInState": 1150,
      "tuitionOutOfState": 8686,
      "admissionRate": null,
      "medianEarnings": 48143,
      "enrollment": 10861,
      "gradEnrollment": null
    },
    {
      "id": 489353,
      "name": "Chamberlain University-California",
      "city": "Rancho Cordova",
      "zip": "95670",
      "url": "https://www.chamberlain.edu/",
      "ownership": "Private For-Profit",
      "lat": 38.596193,
      "lon": -121.278258,
      "tuitionInState": 20462,
      "tuitionOutOfState": 20462,
      "admissionRate": 60,
      "medianEarnings": 92405,
      "enrollment": 676,
      "gradEnrollment": null
    },
    {
      "id": 112127,
      "name": "Church Divinity School of the Pacific",
      "city": "Berkeley",
      "zip": "94709-1211",
      "url": "https://www.cdsp.edu/",
      "ownership": "Private Nonprofit",
      "lat": 37.876184,
      "lon": -122.261122,
      "tuitionInState": null,
      "tuitionOutOfState": null,
      "admissionRate": null,
      "medianEarnings": null,
      "enrollment": null,
      "gradEnrollment": 66
    },
    {
      "id": 461829,
      "name": "Cinta Aveda Institute",
      "city": "San Francisco",
      "zip": "94108-3204",
      "url": "https://www.cintaaveda.edu/",
      "ownership": "Private For-Profit",
      "lat": 37.790935,
      "lon": -122.404307,
      "tuitionInState": null,
      "tuitionOutOfState": null,
      "admissionRate": null,
      "medianEarnings": 34937,
      "enrollment": 95,
      "gradEnrollment": null
    },
    {
      "id": 46182901,
      "name": "Cinta Aveda Institute - San Jose",
      "city": "San Jose",
      "zip": "951130000",
      "url": "https://www.cintaaveda.com/",
      "ownership": "Private For-Profit",
      "lat": null,
      "lon": null,
      "tuitionInState": null,
      "tuitionOutOfState": null,
      "admissionRate": null,
      "medianEarnings": 34937,
      "enrollment": null,
      "gradEnrollment": null
    },
    {
      "id": 112181,
      "name": "Citrus Heights Beauty College",
      "city": "Citrus Heights",
      "zip": "95610-1410",
      "url": "https://chbeautycollege.com/",
      "ownership": "Private For-Profit",
      "lat": 38.712951,
      "lon": -121.289529,
      "tuitionInState": null,
      "tuitionOutOfState": null,
      "admissionRate": null,
      "medianEarnings": null,
      "enrollment": 110,
      "gradEnrollment": null
    },
    {
      "id": 112190,
      "name": "City College of San Francisco",
      "city": "San Francisco",
      "zip": "94112-1898",
      "url": "https://www.ccsf.edu/",
      "ownership": "Public",
      "lat": 37.725953,
      "lon": -122.451155,
      "tuitionInState": 1696,
      "tuitionOutOfState": 14656,
      "admissionRate": null,
      "medianEarnings": 45805,
      "enrollment": 16060,
      "gradEnrollment": null
    },
    {
      "id": 108667,
      "name": "College of Alameda",
      "city": "Alameda",
      "zip": "94501",
      "url": "https://alameda.edu/",
      "ownership": "Public",
      "lat": 37.781017,
      "lon": -122.279303,
      "tuitionInState": 1148,
      "tuitionOutOfState": 8684,
      "admissionRate": null,
      "medianEarnings": 42563,
      "enrollment": 4274,
      "gradEnrollment": null
    },
    {
      "id": 118347,
      "name": "College of Marin",
      "city": "Kentfield",
      "zip": "94904-2590",
      "url": "https://www.marin.edu/",
      "ownership": "Public",
      "lat": 37.951918,
      "lon": -122.548758,
      "tuitionInState": 1558,
      "tuitionOutOfState": 10828,
      "admissionRate": null,
      "medianEarnings": 42654,
      "enrollment": 3928,
      "gradEnrollment": null
    },
    {
      "id": 122791,
      "name": "College of San Mateo",
      "city": "San Mateo",
      "zip": "94402-3784",
      "url": "https://www.collegeofsanmateo.edu/",
      "ownership": "Public",
      "lat": 37.535698,
      "lon": -122.334801,
      "tuitionInState": 1332,
      "tuitionOutOfState": 11384,
      "admissionRate": null,
      "medianEarnings": 54172,
      "enrollment": 7359,
      "gradEnrollment": null
    },
    {
      "id": 121707,
      "name": "College of the Redwoods",
      "city": "Eureka",
      "zip": "95501-9300",
      "url": "https://www.redwoods.edu/",
      "ownership": "Public",
      "lat": 40.698427,
      "lon": -124.195293,
      "tuitionInState": 1147,
      "tuitionOutOfState": 7783,
      "admissionRate": null,
      "medianEarnings": 36243,
      "enrollment": 3514,
      "gradEnrollment": null
    },
    {
      "id": 112561,
      "name": "Columbia College",
      "city": "Sonora",
      "zip": "95370",
      "url": "https://www.gocolumbia.edu/",
      "ownership": "Public",
      "lat": 38.030367,
      "lon": -120.388385,
      "tuitionInState": 1547,
      "tuitionOutOfState": 8870,
      "admissionRate": null,
      "medianEarnings": 39035,
      "enrollment": 1917,
      "gradEnrollment": null
    },
    {
      "id": 112826,
      "name": "Contra Costa College",
      "city": "San Pablo",
      "zip": "94806",
      "url": "https://www.contracosta.edu/",
      "ownership": "Public",
      "lat": 37.969381,
      "lon": -122.337377,
      "tuitionInState": 1312,
      "tuitionOutOfState": 9012,
      "admissionRate": null,
      "medianEarnings": 40850,
      "enrollment": 4805,
      "gradEnrollment": null
    },
    {
      "id": 491950,
      "name": "Contra Costa Medical Career College",
      "city": "Antioch",
      "zip": "94581-6208",
      "url": "https://www.ccmcc.edu/",
      "ownership": "Private For-Profit",
      "lat": 37.976815,
      "lon": -121.801607,
      "tuitionInState": null,
      "tuitionOutOfState": null,
      "admissionRate": null,
      "medianEarnings": null,
      "enrollment": 337,
      "gradEnrollment": null
    },
    {
      "id": 19050301,
      "name": "Culinary Institute of America at Greystone",
      "city": "St. Helena",
      "zip": "94574",
      "url": "https://www.ciachef.edu/",
      "ownership": "Private Nonprofit",
      "lat": null,
      "lon": null,
      "tuitionInState": 38410,
      "tuitionOutOfState": 38410,
      "admissionRate": null,
      "medianEarnings": 47475,
      "enrollment": null,
      "gradEnrollment": null
    },
    {
      "id": 113333,
      "name": "De Anza College",
      "city": "Cupertino",
      "zip": "95014",
      "url": "https://www.deanza.edu/",
      "ownership": "Public",
      "lat": 37.319914,
      "lon": -122.045783,
      "tuitionInState": 1562,
      "tuitionOutOfState": 12317,
      "admissionRate": null,
      "medianEarnings": 56596,
      "enrollment": 14953,
      "gradEnrollment": null
    },
    {
      "id": 488192,
      "name": "DeHart Technical School",
      "city": "Modesto",
      "zip": "95356-9292",
      "url": "https://www.deharttech.edu/",
      "ownership": "Private For-Profit",
      "lat": 37.71339,
      "lon": -120.997781,
      "tuitionInState": null,
      "tuitionOutOfState": null,
      "admissionRate": null,
      "medianEarnings": null,
      "enrollment": 80,
      "gradEnrollment": null
    },
    {
      "id": 113616,
      "name": "DHARMA REALM BUDDHIST UNIVERSITY",
      "city": "Ukiah",
      "zip": "95482-6050",
      "url": "https://www.drbu.edu/",
      "ownership": "Private Nonprofit",
      "lat": 39.134532,
      "lon": -123.158174,
      "tuitionInState": null,
      "tuitionOutOfState": null,
      "admissionRate": null,
      "medianEarnings": null,
      "enrollment": null,
      "gradEnrollment": null
    },
    {
      "id": 113634,
      "name": "Diablo Valley College",
      "city": "Pleasant Hill",
      "zip": "94523",
      "url": "https://www.dvc.edu/",
      "ownership": "Public",
      "lat": 37.968516,
      "lon": -122.073142,
      "tuitionInState": 1312,
      "tuitionOutOfState": 9012,
      "admissionRate": null,
      "medianEarnings": 51378,
      "enrollment": 14734,
      "gradEnrollment": null
    },
    {
      "id": 113704,
      "name": "Dominican School of Philosophy & Theology",
      "city": "Berkeley",
      "zip": "94708-1816",
      "url": "https://www.dspt.edu/",
      "ownership": "Private Nonprofit",
      "lat": 37.881099,
      "lon": -122.264612,
      "tuitionInState": null,
      "tuitionOutOfState": null,
      "admissionRate": null,
      "medianEarnings": null,
      "enrollment": null,
      "gradEnrollment": 64
    },
    {
      "id": 113698,
      "name": "Dominican University of California",
      "city": "San Rafael",
      "zip": "94901-2298",
      "url": "https://www.dominican.edu/",
      "ownership": "Private Nonprofit",
      "lat": 37.981279,
      "lon": -122.512051,
      "tuitionInState": 50666,
      "tuitionOutOfState": 50666,
      "admissionRate": 95.6,
      "medianEarnings": 84713,
      "enrollment": 1178,
      "gradEnrollment": 1313
    },
    {
      "id": 114266,
      "name": "Evergreen Valley College",
      "city": "San Jose",
      "zip": "95135-1598",
      "url": "https://www.evc.edu/",
      "ownership": "Public",
      "lat": 37.30167,
      "lon": -121.76561,
      "tuitionInState": 1366,
      "tuitionOutOfState": 8718,
      "admissionRate": null,
      "medianEarnings": 53077,
      "enrollment": 7670,
      "gradEnrollment": null
    },
    {
      "id": 114585,
      "name": "Five Branches University",
      "city": "Santa Cruz",
      "zip": "95062",
      "url": "https://www.fivebranches.edu/",
      "ownership": "Private For-Profit",
      "lat": 36.964348,
      "lon": -121.998245,
      "tuitionInState": null,
      "tuitionOutOfState": null,
      "admissionRate": null,
      "medianEarnings": null,
      "enrollment": null,
      "gradEnrollment": 398
    },
    {
      "id": 444219,
      "name": "Folsom Lake College",
      "city": "Folsom",
      "zip": "95630",
      "url": "https://www.flc.losrios.edu/",
      "ownership": "Public",
      "lat": 38.661372,
      "lon": -121.127486,
      "tuitionInState": 1288,
      "tuitionOutOfState": 12808,
      "admissionRate": null,
      "medianEarnings": 42568,
      "enrollment": 8937,
      "gradEnrollment": null
    },
    {
      "id": 114716,
      "name": "Foothill College",
      "city": "Los Altos Hills",
      "zip": "94022",
      "url": "https://foothill.edu/",
      "ownership": "Public",
      "lat": 37.361655,
      "lon": -122.127964,
      "tuitionInState": 1565,
      "tuitionOutOfState": 12320,
      "admissionRate": null,
      "medianEarnings": 57072,
      "enrollment": 10922,
      "gradEnrollment": null
    },
    {
      "id": 114761,
      "name": "Fredrick and Charles Beauty College",
      "city": "Eureka",
      "zip": "95501",
      "url": "https://www.fandcbeauty.com/",
      "ownership": "Private For-Profit",
      "lat": 40.798885,
      "lon": -124.164986,
      "tuitionInState": null,
      "tuitionOutOfState": null,
      "admissionRate": null,
      "medianEarnings": 21826,
      "enrollment": 67,
      "gradEnrollment": null
    },
    {
      "id": 114938,
      "name": "Gavilan College",
      "city": "Gilroy",
      "zip": "95020",
      "url": "https://www.gavilan.edu/",
      "ownership": "Public",
      "lat": 36.972627,
      "lon": -121.569842,
      "tuitionInState": 1506,
      "tuitionOutOfState": 12246,
      "admissionRate": null,
      "medianEarnings": 47169,
      "enrollment": 4410,
      "gradEnrollment": null
    },
    {
      "id": 115083,
      "name": "Golden Gate University",
      "city": "San Francisco",
      "zip": "94105-2968",
      "url": "https://www.ggu.edu/",
      "ownership": "Private Nonprofit",
      "lat": 37.789374,
      "lon": -122.398969,
      "tuitionInState": 31243,
      "tuitionOutOfState": 31243,
      "admissionRate": null,
      "medianEarnings": 87434,
      "enrollment": 550,
      "gradEnrollment": 3320
    },
    {
      "id": 115214,
      "name": "Graduate Theological Union",
      "city": "Berkeley",
      "zip": "94709",
      "url": "https://www.gtu.edu/",
      "ownership": "Private Nonprofit",
      "lat": 37.87554,
      "lon": -122.261847,
      "tuitionInState": null,
      "tuitionOutOfState": null,
      "admissionRate": null,
      "medianEarnings": null,
      "enrollment": null,
      "gradEnrollment": 182
    },
    {
      "id": 459213,
      "name": "Gurnick Academy of Medical Arts",
      "city": "San Jose",
      "zip": "95112",
      "url": "https://www.gurnick.edu/",
      "ownership": "Private For-Profit",
      "lat": 37.364294,
      "lon": -121.912991,
      "tuitionInState": null,
      "tuitionOutOfState": null,
      "admissionRate": null,
      "medianEarnings": 66844,
      "enrollment": 2844,
      "gradEnrollment": null
    },
    {
      "id": 115658,
      "name": "Hilltop Beauty School",
      "city": "Daly City",
      "zip": "94014",
      "url": "https://www.hilltopbeautyschool.com/",
      "ownership": "Private For-Profit",
      "lat": 37.705502,
      "lon": -122.461467,
      "tuitionInState": null,
      "tuitionOutOfState": null,
      "admissionRate": null,
      "medianEarnings": 25477,
      "enrollment": 79,
      "gradEnrollment": null
    },
    {
      "id": 480000,
      "name": "Hinton Barber and Beauty College",
      "city": "Vallejo",
      "zip": "94590",
      "url": "https://hintonbarberbeauty.com/",
      "ownership": "Private For-Profit",
      "lat": 38.109629,
      "lon": -122.245384,
      "tuitionInState": null,
      "tuitionOutOfState": null,
      "admissionRate": null,
      "medianEarnings": null,
      "enrollment": 62,
      "gradEnrollment": null
    },
    {
      "id": 488411,
      "name": "Hoss Lee Academy",
      "city": "Roseville",
      "zip": "95661-5233",
      "url": "https://hossleeacademy.com/",
      "ownership": "Private For-Profit",
      "lat": 38.721897,
      "lon": -121.289487,
      "tuitionInState": null,
      "tuitionOutOfState": null,
      "admissionRate": null,
      "medianEarnings": null,
      "enrollment": 97,
      "gradEnrollment": null
    },
    {
      "id": 11577301,
      "name": "Humphreys College-Modesto",
      "city": "Salida",
      "zip": "95368",
      "url": "https://www.humphreys.edu/",
      "ownership": "Private Nonprofit",
      "lat": null,
      "lon": null,
      "tuitionInState": 14760,
      "tuitionOutOfState": 14760,
      "admissionRate": null,
      "medianEarnings": 39248,
      "enrollment": null,
      "gradEnrollment": null
    },
    {
      "id": 115931,
      "name": "Institute for Business and Technology",
      "city": "San Jose",
      "zip": "95134-1620",
      "url": "https://ibt.edu/",
      "ownership": "Private For-Profit",
      "lat": 37.411098,
      "lon": -121.943094,
      "tuitionInState": null,
      "tuitionOutOfState": null,
      "admissionRate": null,
      "medianEarnings": 38015,
      "enrollment": 609,
      "gradEnrollment": null
    },
    {
      "id": 489335,
      "name": "Institute of Buddhist Studies",
      "city": "Berkeley",
      "zip": "94704",
      "url": "https://www.shin-ibs.edu/",
      "ownership": "Private Nonprofit",
      "lat": 37.866732,
      "lon": -122.266105,
      "tuitionInState": null,
      "tuitionOutOfState": null,
      "admissionRate": null,
      "medianEarnings": null,
      "enrollment": null,
      "gradEnrollment": 57
    },
    {
      "id": 481960,
      "name": "InterCoast Colleges-Fairfield",
      "city": "Fairfield",
      "zip": "94534",
      "url": "https://www.intercoast.edu/",
      "ownership": "Private For-Profit",
      "lat": 38.230786,
      "lon": -122.124609,
      "tuitionInState": null,
      "tuitionOutOfState": null,
      "admissionRate": null,
      "medianEarnings": 36089,
      "enrollment": 139,
      "gradEnrollment": null
    },
    {
      "id": 481474,
      "name": "J D Academy of Salon and Spa",
      "city": "Danville",
      "zip": "94526",
      "url": "https://jdacademy.com/",
      "ownership": "Private For-Profit",
      "lat": 37.818164,
      "lon": -121.995828,
      "tuitionInState": null,
      "tuitionOutOfState": null,
      "admissionRate": null,
      "medianEarnings": null,
      "enrollment": 106,
      "gradEnrollment": null
    },
    {
      "id": 12293101,
      "name": "Jesuit School of Theology of Santa Clara University",
      "city": "Berkeley",
      "zip": "94709",
      "url": "https://www.scu.edu/jst",
      "ownership": "Private Nonprofit",
      "lat": null,
      "lon": null,
      "tuitionInState": null,
      "tuitionOutOfState": null,
      "admissionRate": null,
      "medianEarnings": 109183,
      "enrollment": null,
      "gradEnrollment": null
    },
    {
      "id": 117247,
      "name": "Laney College",
      "city": "Oakland",
      "zip": "94607",
      "url": "https://laney.edu/",
      "ownership": "Public",
      "lat": 37.797257,
      "lon": -122.26283,
      "tuitionInState": 1148,
      "tuitionOutOfState": 8684,
      "admissionRate": null,
      "medianEarnings": 37282,
      "enrollment": 7158,
      "gradEnrollment": null
    },
    {
      "id": 366401,
      "name": "Las Positas College",
      "city": "Livermore",
      "zip": "94551-7650",
      "url": "https://www.laspositascollege.edu/",
      "ownership": "Public",
      "lat": 37.710873,
      "lon": -121.80058,
      "tuitionInState": 1168,
      "tuitionOutOfState": 8176,
      "admissionRate": null,
      "medianEarnings": 51088,
      "enrollment": 6766,
      "gradEnrollment": null
    },
    {
      "id": 117520,
      "name": "Life Chiropractic College West",
      "city": "Hayward",
      "zip": "94545-2570",
      "url": "https://www.lifewest.edu/",
      "ownership": "Private Nonprofit",
      "lat": 37.638099,
      "lon": -122.117619,
      "tuitionInState": null,
      "tuitionOutOfState": null,
      "admissionRate": null,
      "medianEarnings": null,
      "enrollment": null,
      "gradEnrollment": 714
    },
    {
      "id": 117557,
      "name": "Lincoln University",
      "city": "Oakland",
      "zip": "94612-2801",
      "url": "https://lincolnuca.edu/",
      "ownership": "Private Nonprofit",
      "lat": 37.804788,
      "lon": -122.269745,
      "tuitionInState": 11420,
      "tuitionOutOfState": 11420,
      "admissionRate": null,
      "medianEarnings": 53695,
      "enrollment": 223,
      "gradEnrollment": 318
    },
    {
      "id": 117894,
      "name": "Los Medanos College",
      "city": "Pittsburg",
      "zip": "94565",
      "url": "https://www.losmedanos.edu/",
      "ownership": "Public",
      "lat": 38.006474,
      "lon": -121.860967,
      "tuitionInState": 1312,
      "tuitionOutOfState": 9012,
      "admissionRate": null,
      "medianEarnings": 42454,
      "enrollment": 7100,
      "gradEnrollment": null
    },
    {
      "id": 118161,
      "name": "Lytles Redwood Empire Beauty College",
      "city": "Santa Rosa",
      "zip": "95403",
      "url": "https://www.lytlesrebc.edu/",
      "ownership": "Private For-Profit",
      "lat": 38.508385,
      "lon": -122.75777,
      "tuitionInState": null,
      "tuitionOutOfState": null,
      "admissionRate": null,
      "medianEarnings": 20358,
      "enrollment": 114,
      "gradEnrollment": null
    },
    {
      "id": 493479,
      "name": "Medical Career College of Northern California",
      "city": "Roseville",
      "zip": "95678-5133",
      "url": "https://medicalcareercollege.edu/",
      "ownership": "Private For-Profit",
      "lat": 38.723329,
      "lon": -121.293121,
      "tuitionInState": 19576,
      "tuitionOutOfState": 19576,
      "admissionRate": null,
      "medianEarnings": null,
      "enrollment": 10,
      "gradEnrollment": null
    },
    {
      "id": 118684,
      "name": "Mendocino College",
      "city": "Ukiah",
      "zip": "95482",
      "url": "https://www.mendocino.edu/",
      "ownership": "Public",
      "lat": 39.188989,
      "lon": -123.228809,
      "tuitionInState": 1423,
      "tuitionOutOfState": 8893,
      "admissionRate": null,
      "medianEarnings": 40243,
      "enrollment": 2857,
      "gradEnrollment": null
    },
    {
      "id": 118693,
      "name": "Menlo College",
      "city": "Atherton",
      "zip": "94027-4301",
      "url": "https://www.menlo.edu/",
      "ownership": "Private Nonprofit",
      "lat": 37.453475,
      "lon": -122.190797,
      "tuitionInState": 51070,
      "tuitionOutOfState": 51070,
      "admissionRate": 67.8,
      "medianEarnings": 76419,
      "enrollment": 811,
      "gradEnrollment": null
    },
    {
      "id": 118718,
      "name": "Merced College",
      "city": "Merced",
      "zip": "95348-2806",
      "url": "https://www.mccd.edu/",
      "ownership": "Public",
      "lat": 37.3353,
      "lon": -120.476464,
      "tuitionInState": 1194,
      "tuitionOutOfState": 8154,
      "admissionRate": null,
      "medianEarnings": 37815,
      "enrollment": 9677,
      "gradEnrollment": null
    },
    {
      "id": 491808,
      "name": "Meridian University",
      "city": "Petaluma",
      "zip": "94952-3092",
      "url": "https://meridianuniversity.edu/",
      "ownership": "Private For-Profit",
      "lat": 38.230878,
      "lon": -122.640029,
      "tuitionInState": null,
      "tuitionOutOfState": null,
      "admissionRate": null,
      "medianEarnings": null,
      "enrollment": null,
      "gradEnrollment": 261
    },
    {
      "id": 118772,
      "name": "Merritt College",
      "city": "Oakland",
      "zip": "94619-3196",
      "url": "https://www.merritt.edu/",
      "ownership": "Public",
      "lat": 37.789088,
      "lon": -122.167335,
      "tuitionInState": 1167,
      "tuitionOutOfState": 8703,
      "admissionRate": null,
      "medianEarnings": 44392,
      "enrollment": 5153,
      "gradEnrollment": null
    },
    {
      "id": 454546,
      "name": "Milan Institute of Cosmetology-Vacaville",
      "city": "Vacaville",
      "zip": "95688",
      "url": "https://www.milaninstitute.edu/",
      "ownership": "Private For-Profit",
      "lat": 38.370051,
      "lon": -121.960688,
      "tuitionInState": null,
      "tuitionOutOfState": null,
      "admissionRate": null,
      "medianEarnings": 22378,
      "enrollment": 234,
      "gradEnrollment": null
    },
    {
      "id": 482060,
      "name": "Milan Institute-Merced",
      "city": "Merced",
      "zip": "95340-2626",
      "url": "https://www.milaninstitute.edu/",
      "ownership": "Private For-Profit",
      "lat": 37.322518,
      "lon": -120.481067,
      "tuitionInState": null,
      "tuitionOutOfState": null,
      "admissionRate": null,
      "medianEarnings": 24879,
      "enrollment": 308,
      "gradEnrollment": null
    },
    {
      "id": 484844,
      "name": "Minerva University",
      "city": "San Francisco",
      "zip": "94103",
      "url": "https://minerva.edu/",
      "ownership": "Private Nonprofit",
      "lat": 37.782711,
      "lon": -122.408039,
      "tuitionInState": 18700,
      "tuitionOutOfState": 18700,
      "admissionRate": 3.6,
      "medianEarnings": null,
      "enrollment": 603,
      "gradEnrollment": 62
    },
    {
      "id": 118930,
      "name": "Mission College",
      "city": "Santa Clara",
      "zip": "95054-1897",
      "url": "https://www.missioncollege.edu/",
      "ownership": "Public",
      "lat": 37.391935,
      "lon": -121.980783,
      "tuitionInState": 1438,
      "tuitionOutOfState": 12220,
      "admissionRate": null,
      "medianEarnings": 50936,
      "enrollment": 5557,
      "gradEnrollment": null
    },
    {
      "id": 118976,
      "name": "Modesto Junior College",
      "city": "Modesto",
      "zip": "95350-5800",
      "url": "https://www.mjc.edu/",
      "ownership": "Public",
      "lat": 37.651056,
      "lon": -121.009792,
      "tuitionInState": 1270,
      "tuitionOutOfState": 8870,
      "admissionRate": null,
      "medianEarnings": 42368,
      "enrollment": 14714,
      "gradEnrollment": null
    },
    {
      "id": 118994,
      "name": "Moler Barber College",
      "city": "Oakland",
      "zip": "94607",
      "url": "https://moler.org/",
      "ownership": "Private For-Profit",
      "lat": 37.805501,
      "lon": -122.294723,
      "tuitionInState": null,
      "tuitionOutOfState": null,
      "admissionRate": null,
      "medianEarnings": 15204,
      "enrollment": 335,
      "gradEnrollment": null
    },
    {
      "id": 382258,
      "name": "Mt. Diablo Adult Education-Mt. Diablo USD",
      "city": "Concord",
      "zip": "94518-1199",
      "url": "https://mdae.mdusd.org/",
      "ownership": "Public",
      "lat": 37.968852,
      "lon": -122.026805,
      "tuitionInState": null,
      "tuitionOutOfState": null,
      "admissionRate": null,
      "medianEarnings": 40175,
      "enrollment": 153,
      "gradEnrollment": null
    },
    {
      "id": 119331,
      "name": "Napa Valley College",
      "city": "Napa",
      "zip": "94558-6236",
      "url": "https://www.napavalley.edu/",
      "ownership": "Public",
      "lat": 38.274081,
      "lon": -122.274381,
      "tuitionInState": 1156,
      "tuitionOutOfState": 11908,
      "admissionRate": null,
      "medianEarnings": 49517,
      "enrollment": 3205,
      "gradEnrollment": null
    },
    {
      "id": 371964,
      "name": "National Career Education",
      "city": "Citrus Heights",
      "zip": "95610",
      "url": "https://nce.edu/",
      "ownership": "Private For-Profit",
      "lat": 38.679835,
      "lon": -121.273917,
      "tuitionInState": null,
      "tuitionOutOfState": null,
      "admissionRate": null,
      "medianEarnings": 38015,
      "enrollment": 438,
      "gradEnrollment": null
    },
    {
      "id": 119553,
      "name": "National Holistic Institute",
      "city": "Emeryville",
      "zip": "94608-2008",
      "url": "https://www.nhi.edu/",
      "ownership": "Private For-Profit",
      "lat": 37.841898,
      "lon": -122.287672,
      "tuitionInState": null,
      "tuitionOutOfState": null,
      "admissionRate": null,
      "medianEarnings": 27978,
      "enrollment": 1134,
      "gradEnrollment": null
    },
    {
      "id": 119951,
      "name": "North Adrian's College of Beauty Inc",
      "city": "Modesto",
      "zip": "95350-2381",
      "url": "https://www.adrians.edu/",
      "ownership": "Private For-Profit",
      "lat": 37.677778,
      "lon": -120.992753,
      "tuitionInState": null,
      "tuitionOutOfState": null,
      "admissionRate": null,
      "medianEarnings": 27269,
      "enrollment": 213,
      "gradEnrollment": null
    },
    {
      "id": 118888,
      "name": "Northeastern University Oakland",
      "city": "Oakland",
      "zip": "94613",
      "url": "https://oakland.northeastern.edu/",
      "ownership": "Private Nonprofit",
      "lat": 37.781425,
      "lon": -122.182294,
      "tuitionInState": 63949,
      "tuitionOutOfState": 63949,
      "admissionRate": 16.5,
      "medianEarnings": 92538,
      "enrollment": 542,
      "gradEnrollment": null
    },
    {
      "id": 120184,
      "name": "Notre Dame de Namur University",
      "city": "Belmont",
      "zip": "94002-1908",
      "url": "https://www.ndnu.edu/",
      "ownership": "Private Nonprofit",
      "lat": 37.517111,
      "lon": -122.284794,
      "tuitionInState": null,
      "tuitionOutOfState": null,
      "admissionRate": null,
      "medianEarnings": 74576,
      "enrollment": 14,
      "gradEnrollment": 246
    },
    {
      "id": 120290,
      "name": "Ohlone College",
      "city": "Fremont",
      "zip": "94539-0390",
      "url": "https://www.ohlone.edu/",
      "ownership": "Public",
      "lat": 37.529931,
      "lon": -121.911795,
      "tuitionInState": 1202,
      "tuitionOutOfState": 8714,
      "admissionRate": null,
      "medianEarnings": 54278,
      "enrollment": 6958,
      "gradEnrollment": null
    },
    {
      "id": 120795,
      "name": "Pacific School of Religion",
      "city": "Berkeley",
      "zip": "94709",
      "url": "https://www.psr.edu/",
      "ownership": "Private Nonprofit",
      "lat": 37.87669,
      "lon": -122.263155,
      "tuitionInState": null,
      "tuitionOutOfState": null,
      "admissionRate": null,
      "medianEarnings": null,
      "enrollment": null,
      "gradEnrollment": 146
    },
    {
      "id": 120865,
      "name": "Pacific Union College",
      "city": "Angwin",
      "zip": "94508-9707",
      "url": "https://www.puc.edu/",
      "ownership": "Private Nonprofit",
      "lat": 38.570585,
      "lon": -122.440308,
      "tuitionInState": 35214,
      "tuitionOutOfState": 35214,
      "admissionRate": 42.5,
      "medianEarnings": 70484,
      "enrollment": 910,
      "gradEnrollment": 50
    },
    {
      "id": 120698,
      "name": "Palo Alto University",
      "city": "Palo Alto",
      "zip": "94304-1337",
      "url": "https://www.paloaltou.edu/",
      "ownership": "Private Nonprofit",
      "lat": 37.382216,
      "lon": -122.187437,
      "tuitionInState": null,
      "tuitionOutOfState": null,
      "admissionRate": null,
      "medianEarnings": 83187,
      "enrollment": 19,
      "gradEnrollment": 1337
    },
    {
      "id": 459231,
      "name": "Paul Mitchell the School-East Bay",
      "city": "Pleasant Hill",
      "zip": "94523",
      "url": "https://paulmitchell.edu/eastbay/",
      "ownership": "Private For-Profit",
      "lat": 37.94492,
      "lon": -122.061226,
      "tuitionInState": null,
      "tuitionOutOfState": null,
      "admissionRate": null,
      "medianEarnings": 29418,
      "enrollment": 212,
      "gradEnrollment": null
    },
    {
      "id": 459170,
      "name": "Paul Mitchell the School-Modesto",
      "city": "Modesto",
      "zip": "95350",
      "url": "https://paulmitchell.edu/modesto",
      "ownership": "Private For-Profit",
      "lat": 37.68301,
      "lon": -120.993745,
      "tuitionInState": null,
      "tuitionOutOfState": null,
      "admissionRate": null,
      "medianEarnings": 28691,
      "enrollment": 305,
      "gradEnrollment": null
    },
    {
      "id": 495077,
      "name": "Paul Mitchell the School-San Jose",
      "city": "San Jose",
      "zip": "95122",
      "url": "https://paulmitchell.edu/sanjose",
      "ownership": "Private For-Profit",
      "lat": 37.325292,
      "lon": -121.814156,
      "tuitionInState": null,
      "tuitionOutOfState": null,
      "admissionRate": null,
      "medianEarnings": null,
      "enrollment": 108,
      "gradEnrollment": null
    },
    {
      "id": 486433,
      "name": "Presidio Graduate School",
      "city": "San Anselmo",
      "zip": "94960",
      "url": "https://www.presidio.edu/",
      "ownership": "Private Nonprofit",
      "lat": 37.969625,
      "lon": -122.565018,
      "tuitionInState": null,
      "tuitionOutOfState": null,
      "admissionRate": null,
      "medianEarnings": null,
      "enrollment": null,
      "gradEnrollment": 173
    },
    {
      "id": 497480,
      "name": "Reach University",
      "city": "Oakland",
      "zip": "94612-1278",
      "url": "https://www.reach.edu/",
      "ownership": "Private Nonprofit",
      "lat": 37.80566,
      "lon": -122.277476,
      "tuitionInState": 12374,
      "tuitionOutOfState": 12374,
      "admissionRate": 99.2,
      "medianEarnings": null,
      "enrollment": 1226,
      "gradEnrollment": 122
    },
    {
      "id": 47503315,
      "name": "Relay Graduate School of Education - California",
      "city": "San Jose",
      "zip": "951103719",
      "url": "https://relay.edu/",
      "ownership": "Private Nonprofit",
      "lat": null,
      "lon": null,
      "tuitionInState": null,
      "tuitionOutOfState": null,
      "admissionRate": null,
      "medianEarnings": null,
      "enrollment": null,
      "gradEnrollment": null
    },
    {
      "id": 123554,
      "name": "Saint Mary's College of California",
      "city": "Moraga",
      "zip": "94575",
      "url": "https://www.stmarys-ca.edu/",
      "ownership": "Private Nonprofit",
      "lat": 37.840731,
      "lon": -122.109031,
      "tuitionInState": 56134,
      "tuitionOutOfState": 56134,
      "admissionRate": 88.6,
      "medianEarnings": 78812,
      "enrollment": 2024,
      "gradEnrollment": 965
    },
    {
      "id": 122296,
      "name": "Samuel Merritt University",
      "city": "Oakland",
      "zip": "94609",
      "url": "https://www.samuelmerritt.edu/",
      "ownership": "Private Nonprofit",
      "lat": 37.82029,
      "lon": -122.266331,
      "tuitionInState": null,
      "tuitionOutOfState": null,
      "admissionRate": null,
      "medianEarnings": 143238,
      "enrollment": 712,
      "gradEnrollment": 1316
    },
    {
      "id": 120166,
      "name": "San Francisco Bay University",
      "city": "Fremont",
      "zip": "94539",
      "url": "https://www.sfbu.edu/",
      "ownership": "Private Nonprofit",
      "lat": 37.485056,
      "lon": -121.927899,
      "tuitionInState": 8775,
      "tuitionOutOfState": 8775,
      "admissionRate": 69.4,
      "medianEarnings": null,
      "enrollment": 62,
      "gradEnrollment": 246
    },
    {
      "id": 122506,
      "name": "San Francisco Conservatory of Music",
      "city": "San Francisco",
      "zip": "94102-6011",
      "url": "https://sfcm.edu/",
      "ownership": "Private Nonprofit",
      "lat": 37.775543,
      "lon": -122.420292,
      "tuitionInState": 54550,
      "tuitionOutOfState": 54550,
      "admissionRate": 51.9,
      "medianEarnings": null,
      "enrollment": 215,
      "gradEnrollment": 234
    },
    {
      "id": 486372,
      "name": "San Francisco Film School",
      "city": "San Francisco",
      "zip": "94104-2835",
      "url": "https://www.sanfranciscofilmschool.edu/",
      "ownership": "Private For-Profit",
      "lat": 37.791643,
      "lon": -122.401124,
      "tuitionInState": null,
      "tuitionOutOfState": null,
      "admissionRate": null,
      "medianEarnings": null,
      "enrollment": 141,
      "gradEnrollment": null
    },
    {
      "id": 454777,
      "name": "San Francisco Institute of Esthetics & Cosmetology Inc",
      "city": "San Francisco",
      "zip": "94103",
      "url": "https://www.sfiec.edu/ and https://paulmitchell.edu/sanfrancisco",
      "ownership": "Private For-Profit",
      "lat": 37.777043,
      "lon": -122.407083,
      "tuitionInState": null,
      "tuitionOutOfState": null,
      "admissionRate": null,
      "medianEarnings": 32926,
      "enrollment": 202,
      "gradEnrollment": null
    },
    {
      "id": 498331,
      "name": "San Francisco School of Massage & Bodywork",
      "city": "San Francisco",
      "zip": "94103-3416",
      "url": "https://www.sfsm.edu/",
      "ownership": "Private For-Profit",
      "lat": 37.765421,
      "lon": -122.421684,
      "tuitionInState": null,
      "tuitionOutOfState": null,
      "admissionRate": null,
      "medianEarnings": null,
      "enrollment": 131,
      "gradEnrollment": null
    },
    {
      "id": 122597,
      "name": "San Francisco State University",
      "city": "San Francisco",
      "zip": "94132",
      "url": "https://www.sfsu.edu/",
      "ownership": "Public",
      "lat": 37.721224,
      "lon": -122.476799,
      "tuitionInState": 7424,
      "tuitionOutOfState": 19304,
      "admissionRate": 96.2,
      "medianEarnings": 68077,
      "enrollment": 20033,
      "gradEnrollment": 3808
    },
    {
      "id": 447351,
      "name": "San Joaquin Valley College-Modesto",
      "city": "Salida",
      "zip": "95368-9090",
      "url": "https://www.sjvc.edu/",
      "ownership": "Private For-Profit",
      "lat": 37.717403,
      "lon": -121.092991,
      "tuitionInState": null,
      "tuitionOutOfState": null,
      "admissionRate": null,
      "medianEarnings": 38317,
      "enrollment": 590,
      "gradEnrollment": null
    },
    {
      "id": 448372,
      "name": "San Joaquin Valley College-Rancho Cordova",
      "city": "Rancho Cordova",
      "zip": "95670-5642",
      "url": "https://www.sjvc.edu/",
      "ownership": "Private For-Profit",
      "lat": 38.595187,
      "lon": -121.28191,
      "tuitionInState": null,
      "tuitionOutOfState": null,
      "admissionRate": null,
      "medianEarnings": 38317,
      "enrollment": 226,
      "gradEnrollment": null
    },
    {
      "id": 11458501,
      "name": "San Jose Campus",
      "city": "San Jose",
      "zip": "95131",
      "url": "https://www.fivebranches.edu/",
      "ownership": "Private For-Profit",
      "lat": null,
      "lon": null,
      "tuitionInState": null,
      "tuitionOutOfState": null,
      "admissionRate": null,
      "medianEarnings": null,
      "enrollment": null,
      "gradEnrollment": null
    },
    {
      "id": 122746,
      "name": "San Jose City College",
      "city": "San Jose",
      "zip": "95128-2798",
      "url": "https://www.sjcc.edu/",
      "ownership": "Public",
      "lat": 37.315827,
      "lon": -121.926185,
      "tuitionInState": 1366,
      "tuitionOutOfState": 9486,
      "admissionRate": null,
      "medianEarnings": 46215,
      "enrollment": 7039,
      "gradEnrollment": null
    },
    {
      "id": 122755,
      "name": "San Jose State University",
      "city": "San Jose",
      "zip": "95192-0186",
      "url": "https://www.sjsu.edu/",
      "ownership": "Public",
      "lat": 37.336569,
      "lon": -121.880621,
      "tuitionInState": 7992,
      "tuitionOutOfState": 19872,
      "admissionRate": 80.2,
      "medianEarnings": 78988,
      "enrollment": 26757,
      "gradEnrollment": 10355
    },
    {
      "id": 122931,
      "name": "Santa Clara University",
      "city": "Santa Clara",
      "zip": "95053",
      "url": "https://www.scu.edu/",
      "ownership": "Private Nonprofit",
      "lat": 37.348362,
      "lon": -121.93784,
      "tuitionInState": 59241,
      "tuitionOutOfState": 59241,
      "admissionRate": 43.8,
      "medianEarnings": 109183,
      "enrollment": 6235,
      "gradEnrollment": 3620
    },
    {
      "id": 123013,
      "name": "Santa Rosa Junior College",
      "city": "Santa Rosa",
      "zip": "95401-4395",
      "url": "https://www.santarosa.edu/",
      "ownership": "Public",
      "lat": 38.45709,
      "lon": -122.718974,
      "tuitionInState": 1318,
      "tuitionOutOfState": 11308,
      "admissionRate": null,
      "medianEarnings": 47224,
      "enrollment": 14327,
      "gradEnrollment": null
    },
    {
      "id": 123341,
      "name": "Sierra College",
      "city": "Rocklin",
      "zip": "95677-3397",
      "url": "https://www.sierracollege.edu/",
      "ownership": "Public",
      "lat": 38.790773,
      "lon": -121.211688,
      "tuitionInState": 1156,
      "tuitionOutOfState": 9988,
      "admissionRate": null,
      "medianEarnings": 45294,
      "enrollment": 13455,
      "gradEnrollment": null
    },
    {
      "id": 123350,
      "name": "Sierra College of Beauty",
      "city": "Merced",
      "zip": "95340",
      "url": "https://sierrabeautycollege.net/blog3/",
      "ownership": "Private For-Profit",
      "lat": 37.306975,
      "lon": -120.495874,
      "tuitionInState": null,
      "tuitionOutOfState": null,
      "admissionRate": null,
      "medianEarnings": 18519,
      "enrollment": 245,
      "gradEnrollment": null
    },
    {
      "id": 123509,
      "name": "Skyline College",
      "city": "San Bruno",
      "zip": "94066-1698",
      "url": "https://skylinecollege.edu/",
      "ownership": "Public",
      "lat": 37.63042,
      "lon": -122.467335,
      "tuitionInState": 1332,
      "tuitionOutOfState": 11384,
      "admissionRate": null,
      "medianEarnings": 55702,
      "enrollment": 7132,
      "gradEnrollment": null
    },
    {
      "id": 110778,
      "name": "Sofia University",
      "city": "Palo Alto",
      "zip": "94303",
      "url": "https://www.sofia.edu/",
      "ownership": "Private For-Profit",
      "lat": 37.430325,
      "lon": -122.10866,
      "tuitionInState": null,
      "tuitionOutOfState": null,
      "admissionRate": null,
      "medianEarnings": null,
      "enrollment": 7,
      "gradEnrollment": 1308
    },
    {
      "id": 123563,
      "name": "Solano Community College",
      "city": "Fairfield",
      "zip": "94534-3197",
      "url": "https://welcome.solano.edu/",
      "ownership": "Public",
      "lat": 38.235881,
      "lon": -122.122368,
      "tuitionInState": 1172,
      "tuitionOutOfState": 8900,
      "admissionRate": null,
      "medianEarnings": 44170,
      "enrollment": 7688,
      "gradEnrollment": null
    },
    {
      "id": 123572,
      "name": "Sonoma State University",
      "city": "Rohnert Park",
      "zip": "94928-3609",
      "url": "https://sonoma.edu/",
      "ownership": "Public",
      "lat": 38.340274,
      "lon": -122.677066,
      "tuitionInState": 8190,
      "tuitionOutOfState": 20070,
      "admissionRate": 94.7,
      "medianEarnings": 65986,
      "enrollment": 5374,
      "gradEnrollment": 841
    },
    {
      "id": 243744,
      "name": "Stanford University",
      "city": "Stanford",
      "zip": "94305",
      "url": "https://www.stanford.edu/",
      "ownership": "Private Nonprofit",
      "lat": 37.429434,
      "lon": -122.167359,
      "tuitionInState": 62484,
      "tuitionOutOfState": 62484,
      "admissionRate": 3.9,
      "medianEarnings": 124080,
      "enrollment": 7841,
      "gradEnrollment": 11572
    },
    {
      "id": 123916,
      "name": "Starr King School for the Ministry",
      "city": "Oakland",
      "zip": "94612",
      "url": "https://www.sksm.edu/",
      "ownership": "Private Nonprofit",
      "lat": 37.803526,
      "lon": -122.270721,
      "tuitionInState": null,
      "tuitionOutOfState": null,
      "admissionRate": null,
      "medianEarnings": null,
      "enrollment": null,
      "gradEnrollment": 107
    },
    {
      "id": 444529,
      "name": "Stellar Career College",
      "city": "Modesto",
      "zip": "95356",
      "url": "https://modesto.stellarcollege.edu/",
      "ownership": "Private For-Profit",
      "lat": 37.701963,
      "lon": -121.071015,
      "tuitionInState": null,
      "tuitionOutOfState": null,
      "admissionRate": null,
      "medianEarnings": 30337,
      "enrollment": 50,
      "gradEnrollment": null
    },
    {
      "id": 484206,
      "name": "The Salon Professional Academy-San Jose",
      "city": "San Jose",
      "zip": "95129-5101",
      "url": "https://www.tspasanjose.com/",
      "ownership": "Private For-Profit",
      "lat": 37.292025,
      "lon": -121.989475,
      "tuitionInState": null,
      "tuitionOutOfState": null,
      "admissionRate": null,
      "medianEarnings": null,
      "enrollment": 231,
      "gradEnrollment": null
    },
    {
      "id": 126012,
      "name": "The Wright Institute",
      "city": "Berkeley",
      "zip": "94704-1796",
      "url": "https://www.wi.edu/",
      "ownership": "Private Nonprofit",
      "lat": 37.868221,
      "lon": -122.253168,
      "tuitionInState": null,
      "tuitionOutOfState": null,
      "admissionRate": null,
      "medianEarnings": null,
      "enrollment": null,
      "gradEnrollment": 601
    },
    {
      "id": 459736,
      "name": "Touro University California",
      "city": "Vallejo",
      "zip": "94592",
      "url": "https://www.tu.edu/",
      "ownership": "Private Nonprofit",
      "lat": 38.085479,
      "lon": -122.263949,
      "tuitionInState": null,
      "tuitionOutOfState": null,
      "admissionRate": null,
      "medianEarnings": 104805,
      "enrollment": null,
      "gradEnrollment": 1231
    },
    {
      "id": 481182,
      "name": "Ukiah Adult School",
      "city": "Ukiah",
      "zip": "95482-3865",
      "url": "https://adultschool.uusd.net/",
      "ownership": "Public",
      "lat": 39.160947,
      "lon": -123.215034,
      "tuitionInState": null,
      "tuitionOutOfState": null,
      "admissionRate": null,
      "medianEarnings": null,
      "enrollment": 0,
      "gradEnrollment": null
    },
    {
      "id": 459204,
      "name": "Unitek College",
      "city": "Fremont",
      "zip": "94538",
      "url": "https://unitekcollege.edu/",
      "ownership": "Private For-Profit",
      "lat": 37.50904,
      "lon": -121.961761,
      "tuitionInState": null,
      "tuitionOutOfState": null,
      "admissionRate": null,
      "medianEarnings": 79550,
      "enrollment": 4715,
      "gradEnrollment": null
    },
    {
      "id": 476799,
      "name": "Unitek College",
      "city": "South San Francisco",
      "zip": "94080-1005",
      "url": "https://www.unitekcollege.edu/",
      "ownership": "Private For-Profit",
      "lat": 37.65642,
      "lon": -122.455603,
      "tuitionInState": null,
      "tuitionOutOfState": null,
      "admissionRate": null,
      "medianEarnings": 87877,
      "enrollment": 255,
      "gradEnrollment": null
    },
    {
      "id": 479424,
      "name": "Unitek College",
      "city": "Hayward",
      "zip": "94541-7026",
      "url": "https://www.unitekcollege.edu/",
      "ownership": "Private For-Profit",
      "lat": 37.661039,
      "lon": -122.116059,
      "tuitionInState": null,
      "tuitionOutOfState": null,
      "admissionRate": null,
      "medianEarnings": 87877,
      "enrollment": 326,
      "gradEnrollment": null
    },
    {
      "id": 45920401,
      "name": "Unitek College - San Jose",
      "city": "San Jose",
      "zip": "951193185",
      "url": "https://www.unitekcollege.edu/",
      "ownership": "Private For-Profit",
      "lat": null,
      "lon": null,
      "tuitionInState": null,
      "tuitionOutOfState": null,
      "admissionRate": null,
      "medianEarnings": 79550,
      "enrollment": null,
      "gradEnrollment": null
    },
    {
      "id": 110398,
      "name": "University of California College of the Law-San Francisco",
      "city": "San Francisco",
      "zip": "94102-4978",
      "url": "https://www.uclawsf.edu/",
      "ownership": "Public",
      "lat": 37.781137,
      "lon": -122.4157,
      "tuitionInState": null,
      "tuitionOutOfState": null,
      "admissionRate": null,
      "medianEarnings": null,
      "enrollment": null,
      "gradEnrollment": 1213
    },
    {
      "id": 110635,
      "name": "University of California-Berkeley",
      "city": "Berkeley",
      "zip": "94720",
      "url": "https://www.berkeley.edu/",
      "ownership": "Public",
      "lat": 37.871918,
      "lon": -122.260463,
      "tuitionInState": 14850,
      "tuitionOutOfState": 45627,
      "admissionRate": 11.7,
      "medianEarnings": 92446,
      "enrollment": 33073,
      "gradEnrollment": 13924
    },
    {
      "id": 110644,
      "name": "University of California-Davis",
      "city": "Davis",
      "zip": "95616-8678",
      "url": "https://ucdavis.edu/",
      "ownership": "Public",
      "lat": 38.539667,
      "lon": -121.749567,
      "tuitionInState": 15247,
      "tuitionOutOfState": 46024,
      "admissionRate": 41.6,
      "medianEarnings": 80838,
      "enrollment": 31777,
      "gradEnrollment": 8604
    },
    {
      "id": 445188,
      "name": "University of California-Merced",
      "city": "Merced",
      "zip": "95343-5603",
      "url": "https://ucmerced.edu/",
      "ownership": "Public",
      "lat": 37.366237,
      "lon": -120.424944,
      "tuitionInState": 14167,
      "tuitionOutOfState": 44944,
      "admissionRate": 39.2,
      "medianEarnings": 64368,
      "enrollment": 8372,
      "gradEnrollment": 793
    },
    {
      "id": 110699,
      "name": "University of California-San Francisco",
      "city": "San Francisco",
      "zip": "94143-0244",
      "url": "https://ucsf.edu/",
      "ownership": "Public",
      "lat": 37.763737,
      "lon": -122.458489,
      "tuitionInState": null,
      "tuitionOutOfState": null,
      "admissionRate": null,
      "medianEarnings": null,
      "enrollment": null,
      "gradEnrollment": 3251
    },
    {
      "id": 110714,
      "name": "University of California-Santa Cruz",
      "city": "Santa Cruz",
      "zip": "95064-1011",
      "url": "https://www.ucsc.edu/",
      "ownership": "Public",
      "lat": 36.995584,
      "lon": -122.058801,
      "tuitionInState": 14560,
      "tuitionOutOfState": 45337,
      "admissionRate": 62.5,
      "medianEarnings": 68396,
      "enrollment": 17812,
      "gradEnrollment": 2112
    },
    {
      "id": 447801,
      "name": "University of East-West Medicine",
      "city": "Sunnyvale",
      "zip": "94085-3922",
      "url": "https://www.uewm.edu/",
      "ownership": "Private For-Profit",
      "lat": 37.3864,
      "lon": -121.997011,
      "tuitionInState": null,
      "tuitionOutOfState": null,
      "admissionRate": null,
      "medianEarnings": null,
      "enrollment": null,
      "gradEnrollment": 113
    },
    {
      "id": 122612,
      "name": "University of San Francisco",
      "city": "San Francisco",
      "zip": "94117-1080",
      "url": "https://www.usfca.edu/",
      "ownership": "Private Nonprofit",
      "lat": 37.776618,
      "lon": -122.450477,
      "tuitionInState": 58222,
      "tuitionOutOfState": 58222,
      "admissionRate": 50.8,
      "medianEarnings": 89812,
      "enrollment": 5697,
      "gradEnrollment": 4527
    },
    {
      "id": 497107,
      "name": "University of Silicon Andhra",
      "city": "Milpitas",
      "zip": "95035",
      "url": "https://www.uofsa.edu/",
      "ownership": "Private Nonprofit",
      "lat": 37.451094,
      "lon": -121.921105,
      "tuitionInState": null,
      "tuitionOutOfState": null,
      "admissionRate": 95.5,
      "medianEarnings": null,
      "enrollment": 87,
      "gradEnrollment": 278
    },
    {
      "id": 112394,
      "name": "University of Silicon Valley",
      "city": "San Jose",
      "zip": "95134",
      "url": "https://usv.edu/",
      "ownership": "Private For-Profit",
      "lat": 37.414049,
      "lon": -121.94087,
      "tuitionInState": 22480,
      "tuitionOutOfState": 22480,
      "admissionRate": 51.3,
      "medianEarnings": 51017,
      "enrollment": 377,
      "gradEnrollment": 15
    },
    {
      "id": 491756,
      "name": "Urban Barber College",
      "city": "Concord",
      "zip": "94520-2522",
      "url": "https://urbanbarbercollege.com/",
      "ownership": "Private For-Profit",
      "lat": 37.974933,
      "lon": -122.03935,
      "tuitionInState": null,
      "tuitionOutOfState": null,
      "admissionRate": null,
      "medianEarnings": null,
      "enrollment": 163,
      "gradEnrollment": null
    },
    {
      "id": 49175601,
      "name": "Urban Barber College - San Jose",
      "city": "San Jose",
      "zip": "95133",
      "url": "https://www.urbanbarbercollege.com/",
      "ownership": "Private For-Profit",
      "lat": null,
      "lon": null,
      "tuitionInState": null,
      "tuitionOutOfState": null,
      "admissionRate": null,
      "medianEarnings": null,
      "enrollment": null,
      "gradEnrollment": null
    },
    {
      "id": 125499,
      "name": "West Valley College",
      "city": "Saratoga",
      "zip": "95070",
      "url": "https://www.westvalley.edu/",
      "ownership": "Public",
      "lat": 37.26398,
      "lon": -122.008324,
      "tuitionInState": 1490,
      "tuitionOutOfState": 8702,
      "admissionRate": null,
      "medianEarnings": 51688,
      "enrollment": 6086,
      "gradEnrollment": null
    },
    {
      "id": 21036801,
      "name": "Western Seminary-San Jose",
      "city": "San Jose",
      "zip": "95120",
      "url": "https://www.westernseminary.edu/",
      "ownership": "Private Nonprofit",
      "lat": null,
      "lon": null,
      "tuitionInState": null,
      "tuitionOutOfState": null,
      "admissionRate": null,
      "medianEarnings": null,
      "enrollment": null,
      "gradEnrollment": null
    },
    {
      "id": 12601201,
      "name": "Wright Institute (The) -",
      "city": "Berkeley",
      "zip": "947102254",
      "url": "https://wi.edu/",
      "ownership": "Private Nonprofit",
      "lat": null,
      "lon": null,
      "tuitionInState": null,
      "tuitionOutOfState": null,
      "admissionRate": null,
      "medianEarnings": null,
      "enrollment": null,
      "gradEnrollment": null
    }
  ]
}
