{
  "type": "FeatureCollection",
  "metadata": {
    "generated": "2026-01-10T20:39:35.345Z",
    "source": "Caltrans GIS - Vista Points District 4",
    "count": 19
  },
  "features": [
    {
      "type": "Feature",
      "properties": {
        "id": "90400066",
        "name": "NAPA VISTA POINT",
        "county": "NAP",
        "route": "29",
        "address": " ",
        "city": " "
      },
      "geometry": {
        "type": "Point",
        "coordinates": [
          -122.274482,
          38.244118
        ]
      }
    },
    {
      "type": "Feature",
      "properties": {
        "id": "90400076",
        "name": "SKYLINE VISTA POINT - N/S",
        "county": "SM",
        "route": "35",
        "address": "JUNCTION 35 / 92",
        "city": " "
      },
      "geometry": {
        "type": "Point",
        "coordinates": [
          -122.36821,
          37.495086
        ]
      }
    },
    {
      "type": "Feature",
      "properties": {
        "id": "90400101",
        "name": "MUIR BEACH VISTA POINT",
        "county": "MRN",
        "route": "1",
        "address": " ",
        "city": "Muir Beach"
      },
      "geometry": {
        "type": "Point",
        "coordinates": [
          -122.585558,
          37.863054
        ]
      }
    },
    {
      "type": "Feature",
      "properties": {
        "id": "90400110",
        "name": "COAL CREEK VISTA POINT - N/S",
        "county": "SM",
        "route": "35",
        "address": " ",
        "city": " "
      },
      "geometry": {
        "type": "Point",
        "coordinates": [
          -122.204147,
          37.324477
        ]
      }
    },
    {
      "type": "Feature",
      "properties": {
        "id": "90400165",
        "name": "SARATOGA GAP VISTA POINT - N/S",
        "county": "SCL",
        "route": "35",
        "address": "Junction of 35 & 9",
        "city": "Saratoga"
      },
      "geometry": {
        "type": "Point",
        "coordinates": [
          -122.121235,
          37.258217
        ]
      }
    },
    {
      "type": "Feature",
      "properties": {
        "id": "90400176",
        "name": "SKEGGS POINT VISTA POINT - N/S",
        "county": "SM",
        "route": "35",
        "address": " ",
        "city": " "
      },
      "geometry": {
        "type": "Point",
        "coordinates": [
          -122.305884,
          37.410865
        ]
      }
    },
    {
      "type": "Feature",
      "properties": {
        "id": "90400197",
        "name": "PULGAS RIDGE VISTA POINT",
        "county": "SM",
        "route": "280",
        "address": " ",
        "city": " "
      },
      "geometry": {
        "type": "Point",
        "coordinates": [
          -122.296719,
          37.478248
        ]
      }
    },
    {
      "type": "Feature",
      "properties": {
        "id": "90400199",
        "name": "FISH & GAME REFUGE VISTA POINT - N/S",
        "county": "SM",
        "route": "280",
        "address": " ",
        "city": " "
      },
      "geometry": {
        "type": "Point",
        "coordinates": [
          -122.310896,
          37.493473
        ]
      }
    },
    {
      "type": "Feature",
      "properties": {
        "id": "99900096",
        "name": "LOPES ROAD VISTA POINT",
        "county": "SOL",
        "route": "680",
        "address": " ",
        "city": " "
      },
      "geometry": {
        "type": "Point",
        "coordinates": [
          -122.11266,
          38.086936
        ]
      }
    },
    {
      "type": "Feature",
      "properties": {
        "id": "99900097",
        "name": "BENICIA TOLL PLAZA VISTA POINT",
        "county": "SOL",
        "route": "680",
        "address": " ",
        "city": " "
      },
      "geometry": {
        "type": "Point",
        "coordinates": [
          -122.12534,
          38.04343
        ]
      }
    },
    {
      "type": "Feature",
      "properties": {
        "id": "99902763",
        "name": "BIRD ROOSTING ISLAND VISTA POINT",
        "county": "CC",
        "route": "580",
        "address": "SAN FRANCISCO BAY TRAIL",
        "city": "Richmond"
      },
      "geometry": {
        "type": "Point",
        "coordinates": [
          -122.317338,
          37.899005
        ]
      }
    },
    {
      "type": "Feature",
      "properties": {
        "id": "99902765",
        "name": "SONOMA CREEK EAST VISTA POINT",
        "county": "SOL",
        "route": "37",
        "address": " ",
        "city": " "
      },
      "geometry": {
        "type": "Point",
        "coordinates": [
          -122.403247,
          38.155662
        ]
      }
    },
    {
      "type": "Feature",
      "properties": {
        "id": "99902766",
        "name": "EMERYVILLE PUBLIC ACCESS PIER VISTA POINT",
        "county": "CC",
        "route": "80",
        "address": "SAN FRANCISCO BAY TRAIL",
        "city": "Emeryville"
      },
      "geometry": {
        "type": "Point",
        "coordinates": [
          -122.29796,
          37.840973
        ]
      }
    },
    {
      "type": "Feature",
      "properties": {
        "id": "99902769",
        "name": "GUADALCANAL VILLAGE RESTORATION OVERLOOK VISTA POINT",
        "county": "SOL",
        "route": "37",
        "address": " ",
        "city": " "
      },
      "geometry": {
        "type": "Point",
        "coordinates": [
          -122.2877,
          38.118486
        ]
      }
    },
    {
      "type": "Feature",
      "properties": {
        "id": "99902770",
        "name": "SONOMA CREEK WEST VISTA POINT",
        "county": "SON",
        "route": "37",
        "address": " ",
        "city": " "
      },
      "geometry": {
        "type": "Point",
        "coordinates": [
          -122.410404,
          38.155554
        ]
      }
    },
    {
      "type": "Feature",
      "properties": {
        "id": "99902771",
        "name": "CARQUINEZ SOUTH VISTA POINT",
        "county": "CC",
        "route": "80",
        "address": "SAN PABLO AVE 0.6 MI W OF CARQUINEZ BRIDGE @ I-80",
        "city": "Crockett"
      },
      "geometry": {
        "type": "Point",
        "coordinates": [
          -122.238002,
          38.055586
        ]
      }
    },
    {
      "type": "Feature",
      "properties": {
        "id": "99902772",
        "name": "RICHMOND-SAN RAFAEL VISTA POINT",
        "county": "MRN",
        "route": "580",
        "address": " ",
        "city": " "
      },
      "geometry": {
        "type": "Point",
        "coordinates": [
          -122.480233,
          37.944022
        ]
      }
    },
    {
      "type": "Feature",
      "properties": {
        "id": "99902774",
        "name": "CARQUINEZ NORTH VISTA POINT",
        "county": "SOL",
        "route": "80",
        "address": "I-80 @ ALFRED ZAMPA BRIDGE",
        "city": "Vallejo"
      },
      "geometry": {
        "type": "Point",
        "coordinates": [
          -122.227175,
          38.665973
        ]
      }
    },
    {
      "type": "Feature",
      "properties": {
        "id": "99902775",
        "name": "LAKE HERMON VISTA POINT",
        "county": "SOL",
        "route": "680",
        "address": " ",
        "city": " "
      },
      "geometry": {
        "type": "Point",
        "coordinates": [
          -122.112739,
          38.086911
        ]
      }
    }
  ]
}